{
  "routes": [
    {
      "code": "IMUS-DASMA-01",
      "name": "Imus Terminal - Dasma Bayan Terminal",
      "description": "Imus Jeepney Terminal to Dasma Bayan Jeepney Terminal via Gen. Yanco, Bucandala, Malagasang Rd, Parklane Bus Stop",
      "type": "jeepney",
      "fare": 13,
      "status": "active",
      "operator": "",
      "stops": [
        { "name": "Imus Jeepney Terminal",    "lat": 14.4038, "lng": 120.9368 },
        { "name": "Gen. Yanco / Tanzang Luma","lat": 14.3965, "lng": 120.9390 },
        { "name": "Bucandala",                "lat": 14.3880, "lng": 120.9415 },
        { "name": "Malagasang Rd",            "lat": 14.3720, "lng": 120.9475 },
        { "name": "Parklane Bus Stop",        "lat": 14.3430, "lng": 120.9565 },
        { "name": "Dasma Bayan Jeepney Terminal","lat": 14.3275, "lng": 120.9590 }
      ],
      "path": [
        [120.9368, 14.4038],
        [120.9372, 14.4015],
        [120.9378, 14.3990],
        [120.9385, 14.3965],
        [120.9390, 14.3940],
        [120.9398, 14.3915],
        [120.9405, 14.3895],
        [120.9415, 14.3880],
        [120.9425, 14.3860],
        [120.9435, 14.3838],
        [120.9442, 14.3815],
        [120.9450, 14.3790],
        [120.9458, 14.3765],
        [120.9468, 14.3740],
        [120.9475, 14.3720],
        [120.9482, 14.3695],
        [120.9490, 14.3670],
        [120.9498, 14.3645],
        [120.9505, 14.3620],
        [120.9515, 14.3595],
        [120.9525, 14.3565],
        [120.9535, 14.3535],
        [120.9545, 14.3505],
        [120.9555, 14.3475],
        [120.9560, 14.3450],
        [120.9565, 14.3430],
        [120.9570, 14.3400],
        [120.9575, 14.3370],
        [120.9580, 14.3340],
        [120.9585, 14.3310],
        [120.9590, 14.3275]
      ]
    }
  ]
}
