{
  "version": "1.0.0",
  "preferences": {
    "savedLocations": [],
    "recentSearches": [],
    "defaultVehicleType": "jeep",
    "units": {
      "distance": "km",
      "currency": "PHP"
    }
  },
  "quickLocations": [
    {
      "id": "quick-1",
      "name": "SM Molino",
      "displayName": "SM City Molino, Bacoor, Cavite",
      "coordinates": [120.9777, 14.3841],
      "type": "mall",
      "icon": "shopping-bag"
    },
    {
      "id": "quick-2",
      "name": "Robinsons Paliparan",
      "displayName": "Robinsons Place Paliparan, Dasmariñas, Cavite",
      "coordinates": [120.9163, 14.4012],
      "type": "mall",
      "icon": "shopping-bag"
    },
    {
      "id": "quick-3",
      "name": "BDO Imus",
      "displayName": "BDO Imus Branch, Imus, Cavite",
      "coordinates": [120.9407, 14.4207],
      "type": "bank",
      "icon": "landmark"
    },
    {
      "id": "quick-4",
      "name": "District Imus",
      "displayName": "District Mall, Imus, Cavite",
      "coordinates": [120.9385, 14.4045],
      "type": "mall",
      "icon": "shopping-bag"
    },
    {
      "id": "quick-5",
      "name": "Imus Public Market",
      "displayName": "Imus Public Market, Imus, Cavite",
      "coordinates": [120.9365, 14.4298],
      "type": "market",
      "icon": "store"
    }
  ],
  "fareConfig": {
    "baseFare": 13,
    "baseDistance": 4,
    "farePerKm": 1.8,
    "currency": "PHP",
    "vehicleTypes": {
      "jeep": {
        "name": "Jeepney",
        "baseFare": 13,
        "farePerKm": 1.8
      },
      "bus": {
        "name": "Bus",
        "baseFare": 15,
        "farePerKm": 2.2
      },
      "tricycle": {
        "name": "Tricycle",
        "baseFare": 20,
        "farePerKm": 5.0
      }
    }
  },
  "spatialFilterConfig": {
    "maxDirectDistance": 3,
    "transferThreshold": 4,
    "maxTransfers": 2
  }
}
